{"type": "FeatureCollection", "features": [{"type": "Feature", "geometry": {"type": "Point", "coordinates": [-121.345804, 44.070651]}, "properties": {"name": "Derrick Harmon", "position": "DE/DT", "college": "Oregon", "college_address": "2600 NW College Way", "city": "Bend", "state": "OR", "team_status": "Player"}}, {"type": "Feature", "geometry": {"type": "Point", "coordinates": [-92.913104, 42.014681]}, "properties": {"name": "Kaleb Johnson", "position": "QB/RB", "college": "Iowa", "college_address": "112 Nicholas Dr", "city": "Marshalltown", "state": "IA", "team_status": "Player"}}, {"type": "Feature", "geometry": {"type": "Point", "coordinates": [-81.9225, 40.775287]}, "properties": {"name": "Jack Sawyer", "position": "DE/OLB", "college": "Ohio State", "college_address": "1328 Dover Rd", "city": "Wooster", "state": "OH", "team_status": "Player"}}, {"type": "Feature", "geometry": {"type": "Point", "coordinates": [-92.913104, 42.014681]}, "properties": {"name": "Yahya Black", "position": "DE/DT", "college": "Iowa", "college_address": "112 Nicholas Dr", "city": "Marshalltown", "state": "IA", "team_status": "Player"}}, {"type": "Feature", "geometry": {"type": "Point", "coordinates": [-81.9225, 40.775287]}, "properties": {"name": "Will Howard", "position": "QB", "college": "Ohio State", "college_address": "1328 Dover Rd", "city": "Wooster", "state": "OH", "team_status": "Player"}}, {"type": "Feature", "geometry": {"type": "Point", "coordinates": [-77.047871, 38.89865]}, "properties": {"name": "Carson Bruener", "position": "ILB/LB", "college": "Washington", "college_address": "2121 I Street, NW", "city": "Washington", "state": "DC", "team_status": "Player"}}, {"type": "Feature", "geometry": {"type": "Point", "coordinates": [-84.775275, 43.591137]}, "properties": {"name": "Donte Kent", "position": "CB", "college": "Central Michigan", "college_address": "106 Warriner Hall", "city": "Mount Pleasant", "state": "MI", "team_status": "Draft"}}, {"type": "Feature", "geometry": {"type": "Point", "coordinates": [-92.913104, 42.014681]}, "properties": {"name": "Sebastian Castro", "position": "FS/S", "college": "Iowa", "college_address": "112 Nicholas Dr", "city": "Marshalltown", "state": "IA", "team_status": "Player"}}, {"type": "Feature", "geometry": {"type": "Point", "coordinates": [-103.205753, 44.075439]}, "properties": {"name": "J. J. Galbreath", "position": "TE", "college": "South Dakota", "college_address": "501 E Saint Joseph St", "city": "Rapid City", "state": "SD", "team_status": "Free Agent"}}, {"type": "Feature", "geometry": {"type": "Point", "coordinates": [-79.999452, 40.437521]}, "properties": {"name": "Ben Sauls", "position": "K", "college": "Pittsburgh", "college_address": "420 Boulevard of the Allies", "city": "Pittsburgh", "state": "PA", "team_status": "Free Agent"}}, {"type": "Feature", "geometry": {"type": "Point", "coordinates": [-89.892093, 35.112191]}, "properties": {"name": "Roc Taylor", "position": "WR", "college": "Memphis", "college_address": "5100 Poplar Avenue, Suite 132", "city": "Memphis", "state": "TN", "team_status": "Free Agent"}}, {"type": "Feature", "geometry": {"type": "Point", "coordinates": [-88.18189, 30.695081]}, "properties": {"name": "DJ Thomas-Jones", "position": "FB", "college": "South Alabama", "college_address": "307 N University Blvd", "city": "Mobile", "state": "AL", "team_status": "Free Agent"}}, {"type": "Feature", "geometry": {"type": "Point", "coordinates": [-92.085177, 46.818896]}, "properties": {"name": "Aiden Williams", "position": "OG", "college": "Minnesota Duluth", "college_address": "515 Darland Administration Bldg", "city": "Duluth", "state": "MN", "team_status": "Free Agent"}}, {"type": "Feature", "geometry": {"type": "Point", "coordinates": [-86.191642, 41.677671]}, "properties": {"name": "Ke'Shawn Williams", "position": "RS/WR", "college": "Indiana", "college_address": "1001 Bethel Circle", "city": "Mishawaka", "state": "IN", "team_status": "Player"}}, {"type": "Feature", "geometry": {"type": "Point", "coordinates": [-122.284618, 37.517501]}, "properties": {"name": "Max Hurleman", "position": "RB", "college": "Notre Dame", "college_address": "1500 Ralston Ave", "city": "Belmont", "state": "CA", "team_status": "Free Agent"}}, {"type": "Feature", "geometry": {"type": "Point", "coordinates": [-90.502825, 38.788203]}, "properties": {"name": "Gareth Warren", "position": "OT", "college": "Lindenwood", "college_address": "209 S Kingshighway", "city": "Saint Charles", "state": "MO", "team_status": "Free Agent"}}, {"type": "Feature", "geometry": {"type": "Point", "coordinates": [-110.872305, 32.237253]}, "properties": {"name": "Montana Lemonious-Craig", "position": "WR", "college": "Arizona", "college_address": "5631 E Speedway Blvd", "city": "Tucson", "state": "AZ", "team_status": "Free Agent"}}, {"type": "Feature", "geometry": {"type": "Point", "coordinates": [-122.416537, 37.774768]}, "properties": {"name": "Aaron Rodgers", "position": "QB", "college": "California", "college_address": "1453 Mission Street", "city": "San Francisco", "state": "CA", "team_status": "Player"}}, {"type": "Feature", "geometry": {"type": "Point", "coordinates": [-95.327682, 34.913336]}, "properties": {"name": "Mason Rudolph", "position": "QB", "college": "Oklahoma State", "college_address": "1301 W Main St", "city": "Wilburton", "state": "OK", "team_status": "Player"}}, {"type": "Feature", "geometry": {"type": "Point", "coordinates": [-89.892093, 35.112191]}, "properties": {"name": "Kenneth Gainwell", "position": "QB", "college": "Memphis", "college_address": "5100 Poplar Avenue, Suite 132", "city": "Memphis", "state": "TN", "team_status": "Player"}}, {"type": "Feature", "geometry": {"type": "Point", "coordinates": [-84.473401, 42.72565]}, "properties": {"name": "Connor Heyward", "position": "FB", "college": "Michigan State", "college_address": "648 N. Shaw Lane, Room 368", "city": "East Lansing", "state": "MI", "team_status": "Player"}}, {"type": "Feature", "geometry": {"type": "Point", "coordinates": [-95.327682, 34.913336]}, "properties": {"name": "Jaylen Warren", "position": "QB", "college": "Oklahoma State", "college_address": "1301 W Main St", "city": "Wilburton", "state": "OK", "team_status": "Player"}}, {"type": "Feature", "geometry": {"type": "Point", "coordinates": [-89.892093, 35.112191]}, "properties": {"name": "Calvin Austin", "position": "QB", "college": "Memphis", "college_address": "5100 Poplar Avenue, Suite 132", "city": "Memphis", "state": "TN", "team_status": "Player"}}, {"type": "Feature", "geometry": {"type": "Point", "coordinates": [-88.483516, 32.830246]}, "properties": {"name": "DK Metcalf", "position": "QB", "college": "Mississippi", "college_address": "1512 Kemper Street", "city": "Scooba", "state": "MS", "team_status": "Player"}}, {"type": "Feature", "geometry": {"type": "Point", "coordinates": [-86.467746, 36.979878]}, "properties": {"name": "Scotty Miller", "position": "QB", "college": "Bowling Green", "college_address": "1901 Russellville Road", "city": "Bowling Green", "state": "KY", "team_status": "Player"}}, {"type": "Feature", "geometry": {"type": "Point", "coordinates": [-122.284618, 37.517501]}, "properties": {"name": "Ben Skowronek", "position": "QB", "college": "Notre Dame", "college_address": "1500 Ralston Ave", "city": "Belmont", "state": "CA", "team_status": "Player"}}, {"type": "Feature", "geometry": {"type": "Point", "coordinates": [-86.896998, 41.681625]}, "properties": {"name": "Roman Wilson", "position": "QB", "college": "Michigan", "college_address": "325 E US Hwy 20", "city": "Michigan City", "state": "IN", "team_status": "Player"}}, {"type": "Feature", "geometry": {"type": "Point", "coordinates": [-79.986362, 42.120271]}, "properties": {"name": "Pat Freiermuth", "position": "QB", "college": "Penn State", "college_address": "4701 College Drive", "city": "Erie", "state": "PA", "team_status": "Player"}}, {"type": "Feature", "geometry": {"type": "Point", "coordinates": [-80.377591, 25.757111]}, "properties": {"name": "Jonnu Smith", "position": "QB", "college": "Florida International", "college_address": "11200 S. W. 8 Street", "city": "Miami", "state": "FL", "team_status": "Player"}}, {"type": "Feature", "geometry": {"type": "Point", "coordinates": [-84.018361, 33.64337]}, "properties": {"name": "Darnell Washington", "position": "QB", "college": "Georgia", "college_address": "900 Flat Shoals Road SE", "city": "Conyers", "state": "GA", "team_status": "Player"}}, {"type": "Feature", "geometry": {"type": "Point", "coordinates": [-97.809704, 31.119054]}, "properties": {"name": "Calvin Anderson", "position": "LT", "college": "Texas", "college_address": "6200 West Central Texas Expressway", "city": "Killeen", "state": "TX", "team_status": "Player"}}, {"type": "Feature", "geometry": {"type": "Point", "coordinates": [-78.729766, 39.652658]}, "properties": {"name": "Spencer Anderson", "position": "LG", "college": "Maryland", "college_address": "12401 Willowbrook Rd SE", "city": "Cumberland", "state": "MD", "team_status": "Player"}}, {"type": "Feature", "geometry": {"type": "Point", "coordinates": [-77.047871, 38.89865]}, "properties": {"name": "Troy Fautanu", "position": "RT", "college": "Washington", "college_address": "2121 I Street, NW", "city": "Washington", "state": "DC", "team_status": "Player"}}, {"type": "Feature", "geometry": {"type": "Point", "coordinates": [-81.796682, 37.006196]}, "properties": {"name": "Zach Frazier", "position": "C", "college": "West Virginia", "college_address": "369 College Road       US Rt. 19, 6 Miles S. Claypool Hill", "city": "Richlands", "state": "VA", "team_status": "Player"}}, {"type": "Feature", "geometry": {"type": "Point", "coordinates": [-84.018361, 33.64337]}, "properties": {"name": "Broderick Jones", "position": "LT", "college": "Georgia", "college_address": "900 Flat Shoals Road SE", "city": "Conyers", "state": "GA", "team_status": "Player"}}, {"type": "Feature", "geometry": {"type": "Point", "coordinates": [-98.524812, 29.305626]}, "properties": {"name": "Ryan McCollum", "position": "C", "college": "Texas A&M", "college_address": "One University Way", "city": "San Antonio", "state": "TX", "team_status": "Player"}}, {"type": "Feature", "geometry": {"type": "Point", "coordinates": [-96.783415, 44.31942]}, "properties": {"name": "Mason McCormick", "position": "RG", "college": "South Dakota State", "college_address": "Administration Lane", "city": "Brookings", "state": "SD", "team_status": "Player"}}, {"type": "Feature", "geometry": {"type": "Point", "coordinates": [-122.168826, 37.426967]}, "properties": {"name": "Andrus Peat", "position": "RT", "college": "Stanford", "college_address": "450 Jane Stanford Way", "city": "Stanford", "state": "CA", "team_status": "Player"}}, {"type": "Feature", "geometry": {"type": "Point", "coordinates": [-123.274721, 44.56274]}, "properties": {"name": "Isaac Seumalo", "position": "LG", "college": "Oregon State", "college_address": "1500 S.W. Jefferson Avenue", "city": "Corvallis", "state": "OR", "team_status": "Player"}}, {"type": "Feature", "geometry": {"type": "Point", "coordinates": [-87.916628, 43.254217]}, "properties": {"name": "Keeanu Benton", "position": "NT", "college": "Wisconsin", "college_address": "12800 N Lake Shore Dr", "city": "Mequon", "state": "WI", "team_status": "Player"}}, {"type": "Feature", "geometry": {"type": "Point", "coordinates": [-81.9225, 40.775287]}, "properties": {"name": "Cameron Heyward", "position": "DT", "college": "Ohio State", "college_address": "1328 Dover Rd", "city": "Wooster", "state": "OH", "team_status": "Player"}}, {"type": "Feature", "geometry": {"type": "Point", "coordinates": [-92.913104, 42.014681]}, "properties": {"name": "Logan Lee", "position": "NT", "college": "Iowa", "college_address": "112 Nicholas Dr", "city": "Marshalltown", "state": "IA", "team_status": "Player"}}, {"type": "Feature", "geometry": {"type": "Point", "coordinates": [-96.096961, 46.288102]}, "properties": {"name": "Esezi Otomewo", "position": "DT", "college": "Minnesota", "college_address": "1414 College Way", "city": "Fergus Falls", "state": "MN", "team_status": "Player"}}, {"type": "Feature", "geometry": {"type": "Point", "coordinates": [-81.9225, 40.775287]}, "properties": {"name": "Malik Harrison", "position": "ILB", "college": "Ohio State", "college_address": "1328 Dover Rd", "city": "Wooster", "state": "OH", "team_status": "Player"}}, {"type": "Feature", "geometry": {"type": "Point", "coordinates": [-87.916628, 43.254217]}, "properties": {"name": "Nick Herbig", "position": "OLB", "college": "Wisconsin", "college_address": "12800 N Lake Shore Dr", "city": "Mequon", "state": "WI", "team_status": "Player"}}, {"type": "Feature", "geometry": {"type": "Point", "coordinates": [-82.147238, 27.005558]}, "properties": {"name": "Alex Highsmith", "position": "OLB", "college": "Charlotte", "college_address": "18150 Murdock Circle", "city": "Port Charlotte", "state": "FL", "team_status": "Player"}}, {"type": "Feature", "geometry": {"type": "Point", "coordinates": [-79.770152, 36.076737]}, "properties": {"name": "Cole Holcomb", "position": "ILB", "college": "North Carolina", "college_address": "1601 E Market  St", "city": "Greensboro", "state": "NC", "team_status": "Player"}}, {"type": "Feature", "geometry": {"type": "Point", "coordinates": [-87.916628, 43.254217]}, "properties": {"name": "T. J. Watt", "position": "OLB", "college": "Wisconsin", "college_address": "12800 N Lake Shore Dr", "city": "Mequon", "state": "WI", "team_status": "Player"}}, {"type": "Feature", "geometry": {"type": "Point", "coordinates": [-85.46355, 31.316086]}, "properties": {"name": "Payton Wilson", "position": "ILB", "college": "N.C. State", "college_address": "1141 Wallace Drive", "city": "Dothan", "state": "AL", "team_status": "Player"}}, {"type": "Feature", "geometry": {"type": "Point", "coordinates": [-79.942581, 37.25766]}, "properties": {"name": "Chuck Clark", "position": "SS", "college": "Virginia Tech", "college_address": "2 Riverside Circle", "city": "Roanoke", "state": "VA", "team_status": "Player"}}, {"type": "Feature", "geometry": {"type": "Point", "coordinates": [-81.326161, 35.73904]}, "properties": {"name": "Kyle Dugger", "position": "SS", "college": "Lenoir Rhyne", "college_address": "625 7th Avenue NE", "city": "Hickory", "state": "NC", "team_status": "Player"}}, {"type": "Feature", "geometry": {"type": "Point", "coordinates": [-86.476717, 36.984827]}, "properties": {"name": "Brandin Echols", "position": "CB", "college": "Kentucky", "college_address": "1845 Loop Dr", "city": "Bowling Green", "state": "KY", "team_status": "Player"}}, {"type": "Feature", "geometry": {"type": "Point", "coordinates": [-86.896998, 41.681625]}, "properties": {"name": "Jabrill Peppers", "position": "SS", "college": "Michigan", "college_address": "325 E US Hwy 20", "city": "Michigan City", "state": "IN", "team_status": "Player"}}, {"type": "Feature", "geometry": {"type": "Point", "coordinates": [-80.102293, 26.372536]}, "properties": {"name": "James Pierre", "position": "CB", "college": "Florida Atlantic", "college_address": "777 Glades Rd", "city": "Boca Raton", "state": "FL", "team_status": "Player"}}, {"type": "Feature", "geometry": {"type": "Point", "coordinates": [-79.986362, 42.120271]}, "properties": {"name": "Joey Porter", "position": "CB", "college": "Penn State", "college_address": "4701 College Drive", "city": "Erie", "state": "PA", "team_status": "Player"}}, {"type": "Feature", "geometry": {"type": "Point", "coordinates": [-80.75813, 28.384791]}, "properties": {"name": "Jalen Ramsey", "position": "FS", "college": "Florida State", "college_address": "1519 Clearlake Rd", "city": "Cocoa", "state": "FL", "team_status": "Player"}}, {"type": "Feature", "geometry": {"type": "Point", "coordinates": [-90.144689, 32.338859]}, "properties": {"name": "Darius Slay", "position": "CB", "college": "Mississippi State", "college_address": "3825 Ridgewood Rd", "city": "Jackson", "state": "MS", "team_status": "Player"}}, {"type": "Feature", "geometry": {"type": "Point", "coordinates": [-84.123648, 33.697984]}, "properties": {"name": "Chris Boswell", "position": "K", "college": "Rice", "college_address": "3038 Evans Mill Rd", "city": "Lithonia", "state": "GA", "team_status": "Player"}}, {"type": "Feature", "geometry": {"type": "Point", "coordinates": [-79.993046, 40.437496]}, "properties": {"name": "Christian Kuntz", "position": "LS", "college": "Duquesne", "college_address": "Administration Bldg 600 Forbes Ave", "city": "Pittsburgh", "state": "PA", "team_status": "Player"}}, {"type": "Feature", "geometry": {"type": "Point", "coordinates": [-88.18189, 30.695081]}, "properties": {"name": "Corliss Waitman", "position": "P", "college": "South Alabama", "college_address": "307 N University Blvd", "city": "Mobile", "state": "AL", "team_status": "Player"}}, {"type": "Feature", "geometry": {"type": "Point", "coordinates": [-79.986362, 42.120271]}, "properties": {"name": "Daryl Porter", "position": "CB", "college": "Penn State", "college_address": "4701 College Drive", "city": "Erie", "state": "PA", "team_status": "Player"}}, {"type": "Feature", "geometry": {"type": "Point", "coordinates": [-88.483516, 32.830246]}, "properties": {"name": "Mark Robinson", "position": "ILB", "college": "Mississippi", "college_address": "1512 Kemper Street", "city": "Scooba", "state": "MS", "team_status": "Player"}}]}